{"_id":{"$oid":"56f02d72c9211c1ab6f2e1e8"},"label":"Peter J. Sharp Boathouse: Swindler Cove","latitude":40.856431,"longitude":-73.921835}
{"_id":{"$oid":"56f02d72c9211c1ab6f2e1e9"},"label":"79th Street Boat Basin","latitude":40.785372,"longitude":-73.985732}
{"_id":{"$oid":"56f02d72c9211c1ab6f2e1ea"},"label":"Randalls Island Park","latitude":40.784715,"longitude":-73.935961}
{"_id":{"$oid":"56f02d72c9211c1ab6f2e1eb"},"label":"Solar One/ Stuy Cove Park","latitude":40.734569,"longitude":-73.97426}
{"_id":{"$oid":"56f02d72c9211c1ab6f2e1ec"},"label":"Anable Basin","latitude":40.749771,"longitude":-73.955874}
{"_id":{"$oid":"56f02d72c9211c1ab6f2e1ed"},"label":"Lower East Side Ecology Center","latitude":40.712745,"longitude":-73.976008}
{"_id":{"$oid":"56f02d72c9211c1ab6f2e1ee"},"label":"The River Project/Hudson River Park Trust","latitude":40.728344,"longitude":-74.013359}
{"_id":{"$oid":"56f02d72c9211c1ab6f2e1ef"},"label":"Worlds Fair Marina","latitude":40.760322,"longitude":-73.849393}
{"_id":{"$oid":"56f02d72c9211c1ab6f2e1f0"},"label":"Conference House Park","latitude":40.502248,"longitude":-74.254309}
{"_id":{"$oid":"56f02d72c9211c1ab6f2e1f1"},"label":"Sebagoe Canoe Club","latitude":40.626383,"longitude":-73.904712}
{"_id":{"$oid":"56f02d72c9211c1ab6f2e1f2"},"label":"Richmond County Yacht Club","latitude":40.543334,"longitude":-74.138903}
{"_id":{"$oid":"56f02d72c9211c1ab6f2e1f3"},"label":"Concrete Plant Park","latitude":40.82568,"longitude":-73.884811}
{"_id":{"$oid":"56f02d72c9211c1ab6f2e1f4"},"label":"Hunts Point Riverside Park","latitude":40.818025,"longitude":-73.881291}
{"_id":{"$oid":"56f02d72c9211c1ab6f2e1f5"},"label":"WYNC Transmitter Park","latitude":40.730099,"longitude":-73.961408}
{"_id":{"$oid":"56f02d72c9211c1ab6f2e1f6"},"label":"Tottenville Marina","latitude":40.515389,"longitude":-74.250204}
{"_id":{"$oid":"56f02d72c9211c1ab6f2e1f7"},"label":"Hudson River Park - Pier 96","latitude":40.771254,"longitude":-73.995754}
{"_id":{"$oid":"56f02d72c9211c1ab6f2e1f8"},"label":"IKEA/Erie Basin","latitude":40.669238,"longitude":-74.010629}
{"_id":{"$oid":"56f02d72c9211c1ab6f2e1f9"},"label":"Battery Park Conservancy","latitude":40.700942,"longitude":-74.015073}
{"_id":{"$oid":"56f02d72c9211c1ab6f2e1fa"},"label":"Harlem River Park","latitude":40.814491,"longitude":-73.933851}
{"_id":{"$oid":"56f02d72c9211c1ab6f2e1fb"},"label":"West Harlem Piers","latitude":40.818969,"longitude":-73.962027}
{"_id":{"$oid":"56f02d72c9211c1ab6f2e1fc"},"label":"Millers Launch","latitude":40.636077,"longitude":-74.07315}
{"_id":{"$oid":"56f02d72c9211c1ab6f2e1fd"},"label":"Mill Pond Park","latitude":40.824567,"longitude":-73.93203}
{"_id":{"$oid":"56f02d72c9211c1ab6f2e1fe"},"label":"Riverside Clay Courts","latitude":40.797006,"longitude":-73.977345}
{"_id":{"$oid":"56f02d72c9211c1ab6f2e1ff"},"label":"Bayridge EcoDock","latitude":40.630196,"longitude":-74.041208}
{"_id":{"$oid":"56f02d72c9211c1ab6f2e200"},"label":"Roberto Clemente State Park","latitude":40.854192,"longitude":-73.921494}
{"_id":{"$oid":"56f02d72c9211c1ab6f2e201"},"label":"La Marina","latitude":40.868637,"longitude":-73.932424}
{"_id":{"$oid":"56f02d72c9211c1ab6f2e202"},"label":"East River State Park","latitude":40.721571,"longitude":-73.96355}
{"_id":{"$oid":"56f02d72c9211c1ab6f2e203"},"label":"Gantry Plaza State Park","latitude":40.743922,"longitude":-73.960024}
{"_id":{"$oid":"56f02d72c9211c1ab6f2e204"},"label":"Princess Bay Marina - Lemon Creek Park","latitude":40.513005,"longitude":-74.199613}
{"_id":{"$oid":"56f02d72c9211c1ab6f2e205"},"label":"Jefferson Park/Bobby Wagner Walkway","latitude":40.79261,"longitude":-73.933706}
{"_id":{"$oid":"56f02d72c9211c1ab6f2e206"},"label":"Hunter's Point South Park","latitude":40.742777,"longitude":-73.96109}
{"_id":{"$oid":"56f02d72c9211c1ab6f2e207"},"label":"Kaiser Park","latitude":40.580402,"longitude":-73.996848}
{"_id":{"$oid":"56f02d72c9211c1ab6f2e208"},"label":"Sherman Creek","latitude":40.858841,"longitude":-73.919644}
{"_id":{"$oid":"56f02d72c9211c1ab6f2e209"},"label":"Marina 59 Rockaways Queens","latitude":40.592319,"longitude":-73.810886}
{"_id":{"$oid":"56f02d72c9211c1ab6f2e20a"},"label":"Astoria Park","latitude":40.780184,"longitude":-73.922891}
{"_id":{"$oid":"56f02d72c9211c1ab6f2e20b"},"label":"Brooklyn Bridge Park, Pier 6","latitude":40.694747,"longitude":-74.00052}
{"_id":{"$oid":"56f02d72c9211c1ab6f2e20c"},"label":"Bobby Wagner Walk @ 90th St.","latitude":40.777571,"longitude":-73.942513}
{"_id":{"$oid":"56f02d72c9211c1ab6f2e20d"},"label":"Bobby Wagner Walk @ 61st St.","latitude":40.76008,"longitude":-73.956784}
{"_id":{"$oid":"56f02d72c9211c1ab6f2e20e"},"label":"Riverside Park Clay Courts @ 95th St.","latitude":40.796375,"longitude":-73.977733}
{"_id":{"$oid":"56f02d72c9211c1ab6f2e20f"},"label":"Pier 1 Riverside Park @ 70th St.","latitude":40.779672,"longitude":-73.989724}
{"_id":{"$oid":"56f02d72c9211c1ab6f2e210"},"label":"Pier 84 Hudson River Park","latitude":40.764304,"longitude":-74.001942}
{"_id":{"$oid":"56f02d72c9211c1ab6f2e211"},"label":"Brooklyn Navy Yards/Wallabout Basin","latitude":40.703584,"longitude":-73.971113}
